[
  {
    "content": {
      "title": "CineMediterra Film Festival",
      "phone": "",
      "link": "https://www.cinemediterra.co.uk",
      "website": "cinemediterra.co.uk",
      "address": "Hackney Picturehouse, Mare Street, London, UK",
      "type": "Festival",
      "image": ""
    },
    "position": {
      "lng": -0.05500419999999999,
      "lat": 51.5446763
    }
  },
  {
    "content": {
      "title": "ActOne Cinema",
      "phone": "",
      "link": "https://www.actonecinema.co.uk",
      "website": "actonecinema.co.uk",
      "address": "ActOne Cinema & Café, High Street, London, UK",
      "type": "Cinema",
      "image": "https://ico-assets-live.s3.eu-west-1.amazonaws.com/wp-content/uploads/2024/10/15173039/ActOne-Cinema-2-150x150.jpg"
    },
    "position": {
      "lng": -0.2685768,
      "lat": 51.506584
    }
  },
  {
    "content": {
      "title": "The Garden Cinema",
      "phone": "",
      "link": "www.thegardencinema.co.uk",
      "website": "thegardencinema.co.uk",
      "address": "39-41 Parker Street, London, WC2B 5PQ",
      "type": "Cinema",
      "image": ""
    },
    "position": {
      "lng": 0,
      "lat": 0
    }
  },
  {
    "content": {
      "title": "Brixton Community Cinema",
      "phone": "",
      "link": "https://www.instagram.com/brixtoncommunitycinema/",
      "website": "instagram.com/brixtoncommunitycinema/",
      "address": "Brixton, London, UK",
      "type": "Society",
      "image": ""
    },
    "position": {
      "lng": -0.1156148,
      "lat": 51.4612794
    }
  },
  {
    "content": {
      "title": "The Garden Cinema",
      "phone": "",
      "link": "https://www.thegardencinema.co.uk",
      "website": "thegardencinema.co.uk",
      "address": "The Garden Cinema, 39-41 Parker Street, London, UK",
      "type": "Cinema",
      "image": "https://ico-assets-live.s3.eu-west-1.amazonaws.com/wp-content/uploads/2022/04/25120515/Garden-Cinema-Alcove-150x150.jpg"
    },
    "position": {
      "lng": -0.1213371,
      "lat": 51.5162287
    }
  },
  {
    "content": {
      "title": "Club Des Femmes",
      "phone": "",
      "link": "http://www.clubdesfemmes.com/",
      "website": "clubdesfemmes.com/",
      "address": "London",
      "type": "Society",
      "image": ""
    },
    "position": {
      "lng": 0.0001,
      "lat": 0
    }
  },
  {
    "content": {
      "title": "Birkbeck Cinema",
      "phone": "",
      "link": "http://www.bbk.ac.uk/arts/about-us/our-building-and-arts-spaces/gordon-square-cinema",
      "website": "bbk.ac.uk/arts/about-us/our-building-and-arts-spaces/gordon-square-cinema",
      "address": "43 Gordon Square, Birkbeck, University of London, London, WC1 0PD",
      "type": "",
      "image": ""
    },
    "position": {
      "lng": -0.1303804,
      "lat": 51.5246353
    }
  },
  {
    "content": {
      "title": "The Cinema at Selfridges",
      "phone": "",
      "link": "https://www.thecinemaatselfridges.com/",
      "website": "thecinemaatselfridges.com/",
      "address": "Selfridges, 400 Oxford Street, London, UK",
      "type": "Cinema",
      "image": ""
    },
    "position": {
      "lng": -0.1525699999999688,
      "lat": 51.51463
    }
  },
  {
    "content": {
      "title": "Catford Mews",
      "phone": "",
      "link": "https://catford-mews.co.uk/",
      "website": "catford-mews.co.uk/",
      "address": "32 Winslade Way, Catford, London SE6 4JU, UK",
      "type": "Cinema",
      "image": "https://ico-assets-live.s3.eu-west-1.amazonaws.com/wp-content/uploads/2020/08/08121558/Catford-Mews_HR-5-scaled-e1596892336971-150x150.jpg"
    },
    "position": {
      "lng": -0.0204654,
      "lat": 51.4462668
    }
  },
  {
    "content": {
      "title": "Bromley Picturehouse",
      "phone": "",
      "link": "https://www.picturehouses.com/cinema/Bromley_Picturehouse",
      "website": "picturehouses.com/cinema/Bromley_Picturehouse",
      "address": "242 High Street, Bromley BR1 1PQ, UK",
      "type": "Cinema",
      "image": ""
    },
    "position": {
      "lng": 0.012142400000016096,
      "lat": 51.40627199999999
    }
  },
  {
    "content": {
      "title": "Kiln Theatre",
      "phone": "020 7328 1000",
      "link": "https://kilntheatre.com",
      "website": "kilntheatre.com",
      "address": "269 Kilburn High Road, London NW6 7JR, UK",
      "type": "Cinema",
      "image": "https://ico-assets-live.s3.eu-west-1.amazonaws.com/wp-content/uploads/2019/01/11154020/Kiln-Theatre-2-crop-e1547222139791-150x150.jpg"
    },
    "position": {
      "lng": -0.19999759999996058,
      "lat": 51.5433324
    }
  },
  {
    "content": {
      "title": "British Academy Film & Television Awards (BAFTA)",
      "phone": "020 7734 0022",
      "link": "http://www.bafta.org",
      "website": "bafta.org",
      "address": "195 Piccadilly, London, W1J 9LN",
      "type": "Cinema",
      "image": ""
    },
    "position": {
      "lng": -0.1374529,
      "lat": 51.5086837
    }
  },
  {
    "content": {
      "title": "TAPE Collective",
      "phone": "",
      "link": "http://www.tapecollective.co.uk",
      "website": "tapecollective.co.uk",
      "address": "Brixton Oval, Coldharbour Lane, London, SW2 1JG",
      "type": "Society",
      "image": ""
    },
    "position": {
      "lng": -0.1029496,
      "lat": 51.4656441
    }
  },
  {
    "content": {
      "title": "Safari Cinema",
      "phone": "0208 426 0303 / 0606",
      "link": "http://www.safaricinema.com",
      "website": "safaricinema.com",
      "address": "2 Station Road, Harrow, London, HA1 2TU",
      "type": "Cinema",
      "image": ""
    },
    "position": {
      "lng": -0.3326644,
      "lat": 51.5865439
    }
  },
  {
    "content": {
      "title": "Boleyn Cinema",
      "phone": "0208 471 4884",
      "link": "http://www.boleyncinemas.com/Default.aspx",
      "website": "boleyncinemas.com/Default.aspx",
      "address": "7-11 Barking Road, London, E6 1PW",
      "type": "Cinema",
      "image": ""
    },
    "position": {
      "lng": 0.0384832,
      "lat": 51.5304916
    }
  },
  {
    "content": {
      "title": "Blackheath Halls",
      "phone": "020 8318 9758",
      "link": "http://www.blackheathhalls.com",
      "website": "blackheathhalls.com",
      "address": "23 Lee Road, London, SE3 9RQ",
      "type": "Cinema",
      "image": ""
    },
    "position": {
      "lng": 0.009699,
      "lat": 51.46445079999999
    }
  },
  {
    "content": {
      "title": "The Exhibit",
      "phone": "020 8772 6556",
      "link": "http://theexhibit.co.uk/",
      "website": "theexhibit.co.uk/",
      "address": "12 Balham Station Road, Balham, London, SW12 9SG",
      "type": "Cinema",
      "image": ""
    },
    "position": {
      "lng": -0.1514569,
      "lat": 51.4433201
    }
  },
  {
    "content": {
      "title": "Watermans Arts Centre",
      "phone": "0208 232 1020",
      "link": "https://www.watermans.org.uk/",
      "website": "watermans.org.uk/",
      "address": "40 High Street, Brentford, London, TW8 0DS",
      "type": "Cinema",
      "image": ""
    },
    "position": {
      "lng": -0.298744,
      "lat": 51.4859227
    }
  },
  {
    "content": {
      "title": "Curzon Aldgate",
      "phone": "0333 321 0104",
      "link": "https://www.curzoncinemas.com/aldgate",
      "website": "curzoncinemas.com/aldgate",
      "address": "2 Canter Way, London, E1 8PS",
      "type": "Cinema",
      "image": ""
    },
    "position": {
      "lng": -0.0693186,
      "lat": 51.5138937
    }
  },
  {
    "content": {
      "title": "Curzon Mondrian London",
      "phone": "",
      "link": "http://www.curzonmondrianlondon.com/",
      "website": "curzonmondrianlondon.com/",
      "address": "20 Upper Ground, London, SE1 9PD",
      "type": "Cinema",
      "image": ""
    },
    "position": {
      "lng": -0.1067988,
      "lat": 51.5084036
    }
  },
  {
    "content": {
      "title": "Curzon Victoria",
      "phone": "",
      "link": "http://www.curzoncinemas.com/victoria/",
      "website": "curzoncinemas.com/victoria/",
      "address": "58 Victoria Street, London, SW1E 6QW",
      "type": "Cinema",
      "image": ""
    },
    "position": {
      "lng": -0.1365005,
      "lat": 51.4976493
    }
  },
  {
    "content": {
      "title": "Everyman Barnet",
      "phone": "",
      "link": "https://www.everymancinema.com/barnet",
      "website": "everymancinema.com/barnet",
      "address": "Great North Road, New Barnet, London, EN5 1AB",
      "type": "Cinema",
      "image": ""
    },
    "position": {
      "lng": -0.1843214,
      "lat": 51.6442789
    }
  },
  {
    "content": {
      "title": "Olympic Cinema",
      "phone": "",
      "link": "http://www.olympiccinema.co.uk",
      "website": "olympiccinema.co.uk",
      "address": "117-123 Church Road, Barnes, London, SW13 9HL",
      "type": "Cinema",
      "image": ""
    },
    "position": {
      "lng": -0.2405031,
      "lat": 51.4751902
    }
  },
  {
    "content": {
      "title": "Curzon Richmond",
      "phone": "",
      "link": "https://www.curzoncinemas.com/richmond/info",
      "website": "curzoncinemas.com/richmond/info",
      "address": "Water Lane, Richmond, London, TW9 1TJ",
      "type": "Cinema",
      "image": ""
    },
    "position": {
      "lng": -0.3073348,
      "lat": 51.4590689
    }
  },
  {
    "content": {
      "title": "Whitechapel Art Gallery",
      "phone": "020 7377 1685",
      "link": "http://www.whitechapelgallery.org/events/",
      "website": "whitechapelgallery.org/events/",
      "address": "80-82 Whitechapel High Street, London, E1 7QX",
      "type": "Cinema",
      "image": ""
    },
    "position": {
      "lng": -0.0704132,
      "lat": 51.5159737
    }
  },
  {
    "content": {
      "title": "Raindance Film Festival",
      "phone": "0207 930 3412",
      "link": "https://www.raindance.org/festival",
      "website": "raindance.org/festival",
      "address": "93-95 Mile End Road, Stepney, London, W1F 8TW",
      "type": "Festival",
      "image": ""
    },
    "position": {
      "lng": -0.0511071,
      "lat": 51.52111499999999
    }
  },
  {
    "content": {
      "title": "BFI London Film Festival",
      "phone": "020 7815 1389",
      "link": "http://www.bfi.org.uk/lff/",
      "website": "bfi.org.uk/lff/",
      "address": "South Bank, London, SE1 8XT",
      "type": "Festival",
      "image": ""
    },
    "position": {
      "lng": -0.1154374,
      "lat": 51.5065807
    }
  },
  {
    "content": {
      "title": "Genesis Cinema",
      "phone": "0207 780 2008",
      "link": "https://www.genesiscinema.co.uk",
      "website": "genesiscinema.co.uk",
      "address": "93-95 Mile End Road, Stepney, London, E1 4UJ",
      "type": "Cinema",
      "image": ""
    },
    "position": {
      "lng": -0.05112200000000001,
      "lat": 51.5211404
    }
  },
  {
    "content": {
      "title": "London Socialist Film Co-op",
      "phone": "020 7278 5674",
      "link": "http://socialistfilm.blogspot.co.uk",
      "website": "socialistfilm.blogspot.co.uk",
      "address": "13 Foundling Court, Brunswick Centre, London, WC1N 1QE",
      "type": "Society",
      "image": ""
    },
    "position": {
      "lng": -0.1235315,
      "lat": 51.5240201
    }
  },
  {
    "content": {
      "title": "Tate Modern",
      "phone": "",
      "link": "http://www.tate.org.uk/whats-on?event_type=film",
      "website": "tate.org.uk/whats-on?event_type=film",
      "address": "Bankside, London, SE1 9TG",
      "type": "Cinema",
      "image": ""
    },
    "position": {
      "lng": -0.0960911,
      "lat": 51.508306
    }
  },
  {
    "content": {
      "title": "Electric Cinema (Portobello)",
      "phone": "",
      "link": "https://www.electriccinema.co.uk",
      "website": "electriccinema.co.uk",
      "address": "191 Portobello Road, Notting Hill Gate, London, W11 2ED",
      "type": "Cinema",
      "image": ""
    },
    "position": {
      "lng": -0.2050174,
      "lat": 51.5155166
    }
  },
  {
    "content": {
      "title": "Goethe Institut",
      "phone": "0207 5964000",
      "link": "https://www.goethe.de/ins/gb/en/sta/lon.html",
      "website": "goethe.de/ins/gb/en/sta/lon.html",
      "address": "50 Princes Gate, Exhibition Road, London, SW7 2PH",
      "type": "Cinema",
      "image": ""
    },
    "position": {
      "lng": -0.1740385,
      "lat": 51.4995836
    }
  },
  {
    "content": {
      "title": "Peckhamplex",
      "phone": "0844 567 2742",
      "link": "http://www.peckhamplex.com",
      "website": "peckhamplex.com",
      "address": "95a Rye Lane, Peckham, London, SE15 4ST",
      "type": "Cinema",
      "image": ""
    },
    "position": {
      "lng": -0.0682474,
      "lat": 51.4708058
    }
  },
  {
    "content": {
      "title": "Stratford East Picturehouse",
      "phone": "020 8522 0043",
      "link": "https://www.picturehouses.com/cinema/Stratford_London",
      "website": "picturehouses.com/cinema/Stratford_London",
      "address": "Gerry Raffell Square, Salway Road, London, E15 1BX",
      "type": "Cinema",
      "image": ""
    },
    "position": {
      "lng": 0.0010091,
      "lat": 51.5425276
    }
  },
  {
    "content": {
      "title": "Everyman Hampstead",
      "phone": "020 3145 0530",
      "link": "https://www.everymancinema.com/hampstead",
      "website": "everymancinema.com/hampstead",
      "address": "5 Hollybush Vale, Hampstead, London, NW3 6TX",
      "type": "Cinema",
      "image": ""
    },
    "position": {
      "lng": -0.1790732,
      "lat": 51.5564721
    }
  },
  {
    "content": {
      "title": "Ritzy Picturehouse",
      "phone": "",
      "link": "http://www.picturehouses.co.uk/cinema/Ritzy_Picturehouse",
      "website": "picturehouses.co.uk/cinema/Ritzy_Picturehouse",
      "address": "Brixton Oval, Coldharbour Lane, London, SW2 1JG",
      "type": "Cinema",
      "image": ""
    },
    "position": {
      "lng": -0.1028496,
      "lat": 51.4656441
    }
  },
  {
    "content": {
      "title": "Tricycle Cinema",
      "phone": "020 7372 6611",
      "link": "http://www.tricycle.co.uk",
      "website": "tricycle.co.uk",
      "address": "269 Kilburn High Road, London, NW6 7JR",
      "type": "Cinema",
      "image": ""
    },
    "position": {
      "lng": -0.2000091,
      "lat": 51.54333159999999
    }
  },
  {
    "content": {
      "title": "David Lean Cinema",
      "phone": "",
      "link": "http://www.davidleancinema.org.uk",
      "website": "davidleancinema.org.uk",
      "address": "Katherine Street, London, CR9 1ET",
      "type": "Cinema",
      "image": ""
    },
    "position": {
      "lng": -0.0989828,
      "lat": 51.3721628
    }
  },
  {
    "content": {
      "title": "Curzon Bloomsbury",
      "phone": "0207 837 1177",
      "link": "https://www.curzoncinemas.com/bloomsbury/info",
      "website": "curzoncinemas.com/bloomsbury/info",
      "address": "The Brunswick Centre, London, WC1N 1AW",
      "type": "Cinema",
      "image": ""
    },
    "position": {
      "lng": -0.1234315,
      "lat": 51.5240201
    }
  },
  {
    "content": {
      "title": "Hackney Picturehouse",
      "phone": "020 8986 3600",
      "link": "https://www.picturehouses.com/cinema/Hackney_Picturehouse",
      "website": "picturehouses.com/cinema/Hackney_Picturehouse",
      "address": "270 Mare Street, London, E8 1HE",
      "type": "Cinema",
      "image": ""
    },
    "position": {
      "lng": -0.0553475,
      "lat": 51.54475859999999
    }
  },
  {
    "content": {
      "title": "East Dulwich Picturehouse & Cafe",
      "phone": "",
      "link": "https://www.picturehouses.com/cinema/East_Dulwich_Picturehouse",
      "website": "picturehouses.com/cinema/East_Dulwich_Picturehouse",
      "address": "116a Lordship Lane, East Dulwich, London, SE22 8HD",
      "type": "Cinema",
      "image": ""
    },
    "position": {
      "lng": -0.07644229999999999,
      "lat": 51.4559769
    }
  },
  {
    "content": {
      "title": "Greenwich Picturehouse",
      "phone": "0208 853 0484",
      "link": "https://www.picturehouses.com/cinema/Greenwich_Picturehouse",
      "website": "picturehouses.com/cinema/Greenwich_Picturehouse",
      "address": "180 Greenwich High Road, London, SE10 8NN",
      "type": "Cinema",
      "image": ""
    },
    "position": {
      "lng": -0.0095257,
      "lat": 51.47914919999999
    }
  },
  {
    "content": {
      "title": "Clapham Picturehouse",
      "phone": "0207 627 7555",
      "link": "https://www.picturehouses.com/cinema/info/Clapham_Picturehouse",
      "website": "picturehouses.com/cinema/info/Clapham_Picturehouse",
      "address": "76 Venn Street, London, SW4 0AT",
      "type": "Cinema",
      "image": ""
    },
    "position": {
      "lng": -0.138199,
      "lat": 51.46251880000001
    }
  },
  {
    "content": {
      "title": "Close-Up Film Centre",
      "phone": "",
      "link": "https://www.closeupfilmcentre.com",
      "website": "closeupfilmcentre.com",
      "address": "97 Sclater Street, London, E1 6HR",
      "type": "Cinema",
      "image": ""
    },
    "position": {
      "lng": -0.07208099999999999,
      "lat": 51.5236331
    }
  },
  {
    "content": {
      "title": "ICA",
      "phone": "020 7930 0493",
      "link": "https://www.ica.art/",
      "website": "ica.art/",
      "address": "ICA, The Mall, London, United Kingdom",
      "type": "Cinema",
      "image": ""
    },
    "position": {
      "lng": -0.13096150000001217,
      "lat": 51.5063335
    }
  },
  {
    "content": {
      "title": "Crouch End Picturehouse",
      "phone": "",
      "link": "https://www.picturehouses.com/cinema/Crouch_End_Picturehouse",
      "website": "picturehouses.com/cinema/Crouch_End_Picturehouse",
      "address": "165 Tottenham Lane, London, N8 9BY",
      "type": "Cinema",
      "image": ""
    },
    "position": {
      "lng": -0.1208325,
      "lat": 51.5816154
    }
  },
  {
    "content": {
      "title": "Arthouse Crouch End",
      "phone": "",
      "link": "http://www.arthousecrouchend.co.uk",
      "website": "arthousecrouchend.co.uk",
      "address": "159A Tottenham Lane, Crouch End, London, N8 9BT",
      "type": "Cinema",
      "image": ""
    },
    "position": {
      "lng": -0.1200304,
      "lat": 51.5818637
    }
  },
  {
    "content": {
      "title": "BFI Southbank",
      "phone": "020 7928 3535",
      "link": "http://www.bfi.org.uk/whatson/bfi_southbank",
      "website": "bfi.org.uk/whatson/bfi_southbank",
      "address": "Belvedere Road, Southbank, London, SE1 8XT",
      "type": "Cinema",
      "image": ""
    },
    "position": {
      "lng": -0.1173553,
      "lat": 51.503513
    }
  },
  {
    "content": {
      "title": "Screen 84",
      "phone": "",
      "link": "",
      "website": "",
      "address": "84 Highbury Park, London, N5 2XE",
      "type": "Society",
      "image": ""
    },
    "position": {
      "lng": 0.0001,
      "lat": 0
    }
  },
  {
    "content": {
      "title": "Whirled Cinema",
      "phone": "",
      "link": "http://www.whirledart.co.uk/cinema",
      "website": "whirledart.co.uk/cinema",
      "address": "259/260 Hardess Street, Loughborough Junction, London, SE24 0HN",
      "type": "Cinema",
      "image": ""
    },
    "position": {
      "lng": -0.1008724,
      "lat": 51.4650615
    }
  },
  {
    "content": {
      "title": "Prince Charles Cinema",
      "phone": "0207 437 7003",
      "link": "https://princecharlescinema.com/PrinceCharlesCinema.dll/Home",
      "website": "princecharlescinema.com/PrinceCharlesCinema.dll/Home",
      "address": "7 Leicester Place, London, WC2H 7BY",
      "type": "Cinema",
      "image": ""
    },
    "position": {
      "lng": -0.1301376,
      "lat": 51.511493
    }
  },
  {
    "content": {
      "title": "Kennington Bioscope",
      "phone": "",
      "link": "http://www.kenningtonbioscope.com/",
      "website": "kenningtonbioscope.com/",
      "address": "2 Dugard Way (off Renfrew Road), London, SE11 4TH",
      "type": "Cinema",
      "image": ""
    },
    "position": {
      "lng": -0.1052203,
      "lat": 51.4922943
    }
  },
  {
    "content": {
      "title": "Rooftop Film Club - Roof East Stratford",
      "phone": "020 7635 6655",
      "link": "http://rooftopfilmclub.com",
      "website": "rooftopfilmclub.com",
      "address": "Roof East, Floors 7 & 8 Stratford Multi Storey Car Park, Great Eastern Way, E15 1XE",
      "type": "Cinema",
      "image": ""
    },
    "position": {
      "lng": -0.0012587,
      "lat": 51.5416372
    }
  },
  {
    "content": {
      "title": "Rooftop Film Club - Bussey Building",
      "phone": "020 7635 5817",
      "link": "http://rooftopfilmclub.com",
      "website": "rooftopfilmclub.com",
      "address": "Bussey Building - 133 Rye Lane, Copeland Road Industrial Park, Peckham, SE15 4ST",
      "type": "Cinema",
      "image": ""
    },
    "position": {
      "lng": -0.066321,
      "lat": 51.469852
    }
  },
  {
    "content": {
      "title": "Phoenix Cinema (East Finchley)",
      "phone": "",
      "link": "http://www.phoenixcinema.co.uk",
      "website": "phoenixcinema.co.uk",
      "address": "52 High Road, East Finchley, London, N2 9PJ",
      "type": "Cinema",
      "image": ""
    },
    "position": {
      "lng": -0.1637694,
      "lat": 51.5884981
    }
  },
  {
    "content": {
      "title": "Everyman Screen on the Green",
      "phone": "",
      "link": "https://www.everymancinema.com/venues-list/x077o-everyman-screen-on-the-green/",
      "website": "everymancinema.com/venues-list/x077o-everyman-screen-on-the-green/",
      "address": "83 Upper Street, Islington, London, N1 0NP",
      "type": "Cinema",
      "image": ""
    },
    "position": {
      "lng": -0.1034021,
      "lat": 51.5366804
    }
  },
  {
    "content": {
      "title": "Forest Cinemas",
      "phone": "",
      "link": "https://www.forestcinema.co.uk/",
      "website": "forestcinema.co.uk/",
      "address": "The Scene, 267 High Street, Walthamstow, E17 7FD",
      "type": "Cinema",
      "image": ""
    },
    "position": {
      "lng": -0.0200261,
      "lat": 51.5849925
    }
  },
  {
    "content": {
      "title": "Electric Cinema (Shoreditch) (formerly The Aubin Cinema)",
      "phone": "",
      "link": "https://www.electriccinema.co.uk/shoreditch",
      "website": "electriccinema.co.uk/shoreditch",
      "address": "64-66 Redchurch Street, Shoreditch, London, E2 7DP",
      "type": "Cinema",
      "image": ""
    },
    "position": {
      "lng": -0.0744556,
      "lat": 51.5242504
    }
  },
  {
    "content": {
      "title": "Picturehouse Central",
      "phone": "020 7087 9010",
      "link": "https://www.picturehouses.com/cinema/Picturehouse_Central",
      "website": "picturehouses.com/cinema/Picturehouse_Central",
      "address": "Picturehouse Central, Piccadilly, London, United Kingdom",
      "type": "Cinema",
      "image": ""
    },
    "position": {
      "lng": -0.13374920000001111,
      "lat": 51.5106799
    }
  },
  {
    "content": {
      "title": "Frontline Club",
      "phone": "020 7479 8960",
      "link": "https://www.frontlineclub.com/",
      "website": "frontlineclub.com/",
      "address": "13 Norfolk Place, London, W2 1QJ",
      "type": "Society",
      "image": ""
    },
    "position": {
      "lng": -0.172443,
      "lat": 51.5169114
    }
  },
  {
    "content": {
      "title": "Film Africa",
      "phone": "0203 073 8335",
      "link": "http://www.filmafrica.org.uk/",
      "website": "filmafrica.org.uk/",
      "address": "Royal African Society, 36 Gordon Square, London",
      "type": "Festival",
      "image": ""
    },
    "position": {
      "lng": -0.1307105,
      "lat": 51.5249937
    }
  },
  {
    "content": {
      "title": "Bernie Grant Arts Centre",
      "phone": "0208 365 5450",
      "link": "http://www.berniegrantcentre.co.uk/",
      "website": "berniegrantcentre.co.uk/",
      "address": "Town Hall Approach Road, Tottenham Green, London, N15 4RX",
      "type": "Cinema",
      "image": ""
    },
    "position": {
      "lng": -0.072781,
      "lat": 51.587429
    }
  },
  {
    "content": {
      "title": "Screen25",
      "phone": "",
      "link": "https://www.screen25.com/",
      "website": "screen25.com/",
      "address": "Cumberlow Avenue, London, SE25 6AE",
      "type": "Cinema",
      "image": ""
    },
    "position": {
      "lng": -0.0750149,
      "lat": 51.4000622
    }
  },
  {
    "content": {
      "title": "Everyman Kings Cross",
      "phone": "0871 906 9060 / 02031961504",
      "link": "https://www.everymancinema.com/kings-cross",
      "website": "everymancinema.com/kings-cross",
      "address": "Handyside Street, King's Cross, London, N1C 4BP",
      "type": "Cinema",
      "image": ""
    },
    "position": {
      "lng": -0.1249586,
      "lat": 51.5373887
    }
  },
  {
    "content": {
      "title": "The Arzner",
      "phone": "",
      "link": "https://thearzner.com/",
      "website": "thearzner.com/",
      "address": "10 Bermondsey Square, London SE1 3UN, United Kingdom",
      "type": "Cinema",
      "image": ""
    },
    "position": {
      "lng": -0.08045219999996789,
      "lat": 51.4975385
    }
  },
  {
    "content": {
      "title": "Wilton's Music Hall",
      "phone": "020 7702 9555",
      "link": "http://www.wiltons.org.uk/",
      "website": "wiltons.org.uk/",
      "address": "1 Graces Alley, London E1 8JB, United Kingdom",
      "type": "Cinema",
      "image": ""
    },
    "position": {
      "lng": -0.06712900000002264,
      "lat": 51.5105523
    }
  },
  {
    "content": {
      "title": "Curzon Chelsea",
      "phone": "0207 351 3743",
      "link": "https://www.curzoncinemas.com/chelsea/info",
      "website": "curzoncinemas.com/chelsea/info",
      "address": "206 King's Road, London SW3 5XP, United Kingdom",
      "type": "Cinema",
      "image": ""
    },
    "position": {
      "lng": -0.16701929999999265,
      "lat": 51.4884061
    }
  },
  {
    "content": {
      "title": "The Lexi Cinema",
      "phone": "020 8955 1521",
      "link": "http://www.thelexicinema.co.uk",
      "website": "thelexicinema.co.uk",
      "address": "194b Chamberlyne Road, Kensal Rise, London, NW10 3JU",
      "type": "Cinema",
      "image": ""
    },
    "position": {
      "lng": -0.22266549999994822,
      "lat": 51.5376785
    }
  },
  {
    "content": {
      "title": "Rich Mix",
      "phone": "020 7613 7490",
      "link": "http://www.richmix.org.uk",
      "website": "richmix.org.uk",
      "address": "35-47 Bethnal Green Road, London E1 6LA, United Kingdom",
      "type": "Cinema",
      "image": ""
    },
    "position": {
      "lng": -0.07354959999997845,
      "lat": 51.52421289999999
    }
  },
  {
    "content": {
      "title": "Wimbledon Film Club",
      "phone": "",
      "link": "https://wimbledonfilmclub.co.uk",
      "website": "wimbledonfilmclub.co.uk",
      "address": "23 The Broadway, Wimbledon, London, SW19 1QB",
      "type": "Society",
      "image": ""
    },
    "position": {
      "lng": -0.205186,
      "lat": 51.4201957
    }
  },
  {
    "content": {
      "title": "Dochouse",
      "phone": "",
      "link": "http://dochouse.org/cinema",
      "website": "dochouse.org/cinema",
      "address": "Curzon Bloomsbury, London WC1N 1AW, United Kingdom",
      "type": "Cinema",
      "image": ""
    },
    "position": {
      "lng": -0.12309400000003734,
      "lat": 51.524128
    }
  },
  {
    "content": {
      "title": "Fashion in Film Festival",
      "phone": "0207 514 8711",
      "link": "http://www.fashioninfilm.com/festivals",
      "website": "fashioninfilm.com/festivals",
      "address": "Granary Square, London N1C 4AA, United Kingdom",
      "type": "Festival",
      "image": ""
    },
    "position": {
      "lng": -0.12549319999993713,
      "lat": 51.53636879999999
    }
  },
  {
    "content": {
      "title": "University of Arts London Film Society",
      "phone": "2075146270",
      "link": "https://www.facebook.com/CinemaMasters/",
      "website": "facebook.com/CinemaMasters/",
      "address": "272 High Holborn, London, WC1V 7EY",
      "type": "Society",
      "image": ""
    },
    "position": {
      "lng": -0.1163883,
      "lat": 51.5176901
    }
  },
  {
    "content": {
      "title": "UCL Film & TV Society",
      "phone": "0207 387 3827",
      "link": "http://uclfilmsociety.co.uk",
      "website": "uclfilmsociety.co.uk",
      "address": "Students’ Union UCL, 25 Gordon Street, London, WC1H 0AY",
      "type": "Society",
      "image": ""
    },
    "position": {
      "lng": -0.1333384,
      "lat": 51.5256455
    }
  },
  {
    "content": {
      "title": "LSE Film Society",
      "phone": "",
      "link": "https://www.facebook.com/lsesufilmsociety",
      "website": "facebook.com/lsesufilmsociety",
      "address": "1 Sheffield Street, London WC2A 2AP, United Kingdom",
      "type": "Society",
      "image": ""
    },
    "position": {
      "lng": -0.11761500000000069,
      "lat": 51.5146385
    }
  },
  {
    "content": {
      "title": "Creative Arts Film Society",
      "phone": "",
      "link": "https://www.qmsu.org/groups/film/",
      "website": "qmsu.org/groups/film/",
      "address": "329 Mile End Road, London E1 4NT, United Kingdom",
      "type": "Society",
      "image": ""
    },
    "position": {
      "lng": -0.03935609999996359,
      "lat": 51.5235122
    }
  },
  {
    "content": {
      "title": "Highgate Film Society",
      "phone": "020 8340 3343",
      "link": "http://www.hlsi.net/whats-on/film-society/",
      "website": "hlsi.net/whats-on/film-society/",
      "address": "South Grove, London N6 6BS, United Kingdom",
      "type": "Society",
      "image": ""
    },
    "position": {
      "lng": -0.14808059999995749,
      "lat": 51.5704076
    }
  },
  {
    "content": {
      "title": "Cine Lumiere",
      "phone": "0207 871 3515",
      "link": "https://www.institut-francais.org.uk",
      "website": "institut-francais.org.uk",
      "address": "17 Queensberry Place, London, SW7 2DT",
      "type": "Cinema",
      "image": ""
    },
    "position": {
      "lng": -0.1773215,
      "lat": 51.4945863
    }
  },
  {
    "content": {
      "title": "East End Film Festival",
      "phone": "0208 980 8771",
      "link": "http://www.eastendfilmfestival.com",
      "website": "eastendfilmfestival.com",
      "address": "Knowledge Dock 2.17, University of East London, Docklands Campus, University Way, London, E16 2RD",
      "type": "Festival",
      "image": ""
    },
    "position": {
      "lng": 0.0662003,
      "lat": 51.5074078
    }
  },
  {
    "content": {
      "title": "McGuffin Film & TV Society",
      "phone": "",
      "link": "http://www.mcguffin.info/",
      "website": "mcguffin.info/",
      "address": "458 Hoe Street, London E17 9AH, United Kingdom",
      "type": "Society",
      "image": ""
    },
    "position": {
      "lng": -0.015041399999972782,
      "lat": 51.57603839999999
    }
  },
  {
    "content": {
      "title": "Curzon Mayfair",
      "phone": "01233 555644",
      "link": "https://www.curzoncinemas.com/mayfair/info",
      "website": "curzoncinemas.com/mayfair/info",
      "address": "38 Curzon Street, London W1J 7TY, United Kingdom",
      "type": "Cinema",
      "image": ""
    },
    "position": {
      "lng": -0.147908599999937,
      "lat": 51.5066283
    }
  },
  {
    "content": {
      "title": "The Horse Hospital",
      "phone": "020 7833 3644",
      "link": "http://www.thehorsehospital.com",
      "website": "thehorsehospital.com",
      "address": "Colonnade, London WC1N 1HX, United Kingdom",
      "type": "Cinema",
      "image": ""
    },
    "position": {
      "lng": -0.1235117999999602,
      "lat": 51.5230468
    }
  },
  {
    "content": {
      "title": "Everyman Belsize Park",
      "phone": "020 7435 9787",
      "link": "https://www.everymancinema.com/belsize-park",
      "website": "everymancinema.com/belsize-park",
      "address": "203 Haverstock Hill, London NW3 4QG, United Kingdom",
      "type": "Cinema",
      "image": ""
    },
    "position": {
      "lng": -0.16578770000000986,
      "lat": 51.5508138
    }
  },
  {
    "content": {
      "title": "Everyman Baker Street",
      "phone": "0203 145 0565",
      "link": "https://www.everymancinema.com/baker-street",
      "website": "everymancinema.com/baker-street",
      "address": "96-98 Baker St, London, W1U 6TJ",
      "type": "Cinema",
      "image": ""
    },
    "position": {
      "lng": -0.1565884,
      "lat": 51.5205731
    }
  },
  {
    "content": {
      "title": "BFI Flare: London LGBT Film Festival",
      "phone": "020 7815 1322",
      "link": "http://www.bfi.org.uk/flare",
      "website": "bfi.org.uk/flare",
      "address": "BFI Southbank, Belvedere Road, London, United Kingdom",
      "type": "Festival",
      "image": ""
    },
    "position": {
      "lng": -0.11556559999996807,
      "lat": 51.507144
    }
  },
  {
    "content": {
      "title": "Fright Fest",
      "phone": "",
      "link": "http://www.frightfest.co.uk",
      "website": "frightfest.co.uk",
      "address": "Leicester Square, London, WC2H 7LP",
      "type": "Festival",
      "image": ""
    },
    "position": {
      "lng": -0.1305406,
      "lat": 51.509709
    }
  },
  {
    "content": {
      "title": "Rio Cinema",
      "phone": "020 7241 9410",
      "link": "http://riocinema.org.uk/RioCinema.dll/Home",
      "website": "riocinema.org.uk/RioCinema.dll/Home",
      "address": "107 Kingsland High Street, London, E8 2PB",
      "type": "Cinema",
      "image": ""
    },
    "position": {
      "lng": -0.07556439999999999,
      "lat": 51.5496961
    }
  },
  {
    "content": {
      "title": "Rainbow Film Society",
      "phone": "020 7392 2008",
      "link": "www.rainbowfilmsociety.com",
      "website": "rainbowfilmsociety.com",
      "address": "Montefiore Centre, Hanbury St, London, E1 5HZ",
      "type": "Society",
      "image": ""
    },
    "position": {
      "lng": -0.06668,
      "lat": 51.519775
    }
  },
  {
    "content": {
      "title": "Imperial War Museum",
      "phone": "0207 416 5000",
      "link": "http://www.iwm.org.uk/events/iwm-london",
      "website": "iwm.org.uk/events/iwm-london",
      "address": "Lambeth Road, London, SE1 6HZ",
      "type": "Cinema",
      "image": ""
    },
    "position": {
      "lng": -0.1128593,
      "lat": 51.4961528
    }
  },
  {
    "content": {
      "title": "UK Asian Film Festival (Tongues on Fire)",
      "phone": "020 8965 7578",
      "link": "http://tonguesonfire.com/",
      "website": "tonguesonfire.com/",
      "address": "Westbury House, 23-25 Bridge Street, Pinner, HA5 3HR",
      "type": "Festival",
      "image": ""
    },
    "position": {
      "lng": -0.383474,
      "lat": 51.594814
    }
  },
  {
    "content": {
      "title": "LUX",
      "phone": "020 7503 3980",
      "link": "https://lux.org.uk/whats-on/",
      "website": "lux.org.uk/whats-on/",
      "address": "Waterlow Park Centre\nF, Dartmouth Park Hill, London, N19 5JF",
      "type": "Cinema",
      "image": ""
    },
    "position": {
      "lng": -0.143021,
      "lat": 51.568289
    }
  },
  {
    "content": {
      "title": "Portobello Film Festival",
      "phone": "020 8960 0996",
      "link": "http://www.portobellofilmfestival.com",
      "website": "portobellofilmfestival.com",
      "address": "Unit 11 Acava, 54 Blechynden Street, London, W10 6RJ",
      "type": "Festival",
      "image": ""
    },
    "position": {
      "lng": -0.2167788,
      "lat": 51.5144589
    }
  },
  {
    "content": {
      "title": "Deptford Cinema",
      "phone": "",
      "link": "http://deptfordcinema.org/",
      "website": "deptfordcinema.org/",
      "address": "39 Deptford Broadway, London SE8 4PQ, United Kingdom",
      "type": "Cinema",
      "image": ""
    },
    "position": {
      "lng": -0.024560400000041227,
      "lat": 51.4744201
    }
  },
  {
    "content": {
      "title": "The Castle Cinema",
      "phone": "",
      "link": "https://thecastlecinema.com",
      "website": "thecastlecinema.com",
      "address": "First Floor, 64-66 Brooksby's Walk, London, E9 6DA",
      "type": "Cinema",
      "image": ""
    },
    "position": {
      "lng": -0.043435,
      "lat": 51.551228
    }
  },
  {
    "content": {
      "title": "Pitshanger Pictures",
      "phone": "",
      "link": "http://www.barnabites.org/social/pitshanger-pictures/",
      "website": "barnabites.org/social/pitshanger-pictures/",
      "address": "Pitshanger Lane, London, W5 1QG",
      "type": "Cinema",
      "image": ""
    },
    "position": {
      "lng": -0.3081607,
      "lat": 51.5270181
    }
  },
  {
    "content": {
      "title": "JW3",
      "phone": "020 7433 8988",
      "link": "http://www.jw3.org.uk",
      "website": "jw3.org.uk",
      "address": "341-351 Finchley Road, London, NW3 6ET",
      "type": "Cinema",
      "image": "https://ico-assets-live.s3.eu-west-1.amazonaws.com/wp-content/uploads/2017/08/31133336/BLAKE_EZRA_JW3_DINNER2016_0284_1990x796_acf_cropped-150x150.jpg"
    },
    "position": {
      "lng": -0.1847811,
      "lat": 51.5510524
    }
  }
]
